[
  {
    "gid": "0318b49d",
    "rdv_site_web": "https://app.ordoclic.fr/app/pharmacie/pharmacie-de-la-mairie-meru-meru",
    "com_cp": "60110",
    "com_insee": "60395",
    "nom": "Pharmacie De La Mairie M\u00e9ru",
    "phone_number": "+33344224157",
    "location": {
      "zip": "60110",
      "address": "4 PLACE DE L HOTEL DE VILLE",
      "coordinates": {
        "lon": 2.1355473,
        "lat": 49.2364028
      },
      "city": "MERU"
    },
    "iterator": "ordoclic",
    "type": "drugstore"
  },
  {
    "gid": "03674d71",
    "rdv_site_web": "https://app.ordoclic.fr/app/pharmacie/pharmacie-oceane-paris",
    "com_cp": "75015",
    "com_insee": "75115",
    "nom": "Pharmacie Oceane",
    "phone_number": "+33145788618",
    "location": {
      "zip": "75015",
      "address": "19 rue Lourmel ",
      "coordinates": {
        "lon": 2.2914519,
        "lat": 48.84922659999999
      },
      "city": "Paris"
    },
    "iterator": "ordoclic",
    "type": "drugstore"
  },
  {
    "gid": "07d3b6f9",
    "rdv_site_web": "https://app.ordoclic.fr/app/pharmacie/pharmacie-porte-sud-chatellerault",
    "com_cp": "86100",
    "com_insee": "86259",
    "nom": "Pharmacie Porte Sud",
    "phone_number": "+33549215709",
    "location": {
      "zip": "86100",
      "address": "6 AV CAMILLE PAGE",
      "coordinates": {
        "lon": 0.5293911000000001,
        "lat": 46.7983394
      },
      "city": "CHATELLERAULT"
    },
    "iterator": "ordoclic",
    "type": "drugstore"
  },
  {
    "gid": "09129543",
    "rdv_site_web": "https://app.ordoclic.fr/app/pharmacie/pharmacie-des-aires-sommieres",
    "com_cp": "30250",
    "com_insee": "30352",
    "nom": "Pharmacie Des Aires",
    "phone_number": "+33466777065",
    "location": {
      "zip": "30250",
      "address": "845 route de Salinelles",
      "coordinates": {
        "lon": 4.0875267,
        "lat": 43.7825887
      },
      "city": "sommieres"
    },
    "iterator": "ordoclic",
    "type": "drugstore"
  },
  {
    "gid": "0b066c1c",
    "rdv_site_web": "https://app.ordoclic.fr/app/pharmacie/pharmacie-des-deux-rives-montreal-la-cluse",
    "com_cp": "01460",
    "com_insee": "01307",
    "nom": "Pharmacie Des Deux Rives",
    "phone_number": "+33474760666",
    "location": {
      "zip": "01460",
      "address": "15 avenue de Bresse",
      "coordinates": {
        "lon": 5.5744149,
        "lat": 46.1711369
      },
      "city": "Montr\u00e9al-la-Cluse"
    },
    "iterator": "ordoclic",
    "type": "drugstore"
  },
  {
    "gid": "0e9d4b2f",
    "rdv_site_web": "https://app.ordoclic.fr/app/pharmacie/pharmacie-de-fabron-nice",
    "com_cp": "06200",
    "com_insee": "06088",
    "nom": "Pharmacie De Fabron",
    "phone_number": "+33493865267",
    "location": {
      "zip": "06200",
      "address": "54 avenue de la Californie",
      "coordinates": {
        "lon": 7.2407192,
        "lat": 43.68950340000001
      },
      "city": "Nice"
    },
    "iterator": "ordoclic",
    "type": "drugstore"
  },
  {
    "gid": "1cf1add5",
    "rdv_site_web": "https://app.ordoclic.fr/app/pharmacie/-pharmacie-veux-le-controis-en-sologne",
    "com_cp": "41700",
    "com_insee": "41237",
    "nom": "Pharmacie Veux",
    "phone_number": "+33254795024",
    "location": {
      "zip": "41700",
      "address": "69 Route de Cheverny (Contres)",
      "coordinates": {
        "lon": 1.4363524,
        "lat": 47.4294989
      },
      "city": "Le Controis-en-Sologne"
    },
    "iterator": "ordoclic",
    "type": "drugstore"
  },
  {
    "gid": "219c4eb7",
    "rdv_site_web": "https://app.ordoclic.fr/app/pharmacie/pharmacie-de-l'europe-fuveau-fuveau",
    "com_cp": "13710",
    "com_insee": "13040",
    "nom": "Pharmacie De L'Europe Fuveau",
    "phone_number": "+33442681891",
    "location": {
      "zip": "13710",
      "address": "395 Route Departementale 96",
      "coordinates": {
        "lon": 5.5614408,
        "lat": 43.4538963
      },
      "city": "Fuveau"
    },
    "iterator": "ordoclic",
    "type": "drugstore"
  },
  {
    "gid": "277041f1",
    "rdv_site_web": "https://app.ordoclic.fr/app/pharmacie/pharmacie-tournamy-mougins",
    "com_cp": "6250",
    "com_insee": "06085",
    "nom": "Pharmacie Tournamy",
    "phone_number": "+33493752955",
    "location": {
      "zip": "6250",
      "address": "762 avenue de Tournamy",
      "coordinates": {
        "lon": 6.987608,
        "lat": 43.604383
      },
      "city": "Mougins"
    },
    "iterator": "ordoclic",
    "type": "drugstore"
  },
  {
    "gid": "356fc43b",
    "rdv_site_web": "https://app.ordoclic.fr/app/pharmacie/pharmacie-guillot-artigues-pres-bordeaux",
    "com_cp": "33370",
    "com_insee": "33554",
    "nom": "Pharmacie Guillot",
    "phone_number": "+33557340542",
    "location": {
      "zip": "33370",
      "address": "3 AV DU PERIGORD",
      "coordinates": {
        "lon": -0.4729472,
        "lat": 44.865377
      },
      "city": "ARTIGUES PRES BORDEAUX"
    },
    "iterator": "ordoclic",
    "type": "drugstore"
  },
  {
    "gid": "38614689",
    "rdv_site_web": "https://app.ordoclic.fr/app/pharmacie/pharmacie-de-la-trinite-paris",
    "com_cp": "75009",
    "com_insee": "75109",
    "nom": "Pharmacie De La Trinit\u00e9",
    "phone_number": "+33148741313",
    "location": {
      "zip": "75009",
      "address": "57 rue de Ch\u00e2teaudun",
      "coordinates": {
        "lon": 2.33262,
        "lat": 48.8761741
      },
      "city": "Paris"
    },
    "iterator": "ordoclic",
    "type": "drugstore"
  },
  {
    "gid": "40d3f70d",
    "rdv_site_web": "https://app.ordoclic.fr/app/pharmacie/pharmacie-principale-pertuis",
    "com_cp": "84120",
    "com_insee": "84089",
    "nom": "Pharmacie Principale",
    "phone_number": "+33490097271",
    "location": {
      "zip": "84120",
      "address": "114 Place Jean Jaures",
      "coordinates": {
        "lon": 5.5016043,
        "lat": 43.6934976
      },
      "city": "PERTUIS"
    },
    "iterator": "ordoclic",
    "type": "drugstore"
  },
  {
    "gid": "41b5a8e4",
    "rdv_site_web": "https://app.ordoclic.fr/app/pharmacie/herboristerie-petit-marseille",
    "com_cp": "13001",
    "com_insee": "13201",
    "nom": "Herboristerie Petit",
    "phone_number": "+33491623303",
    "location": {
      "zip": "13001",
      "address": "24 Cours Joseph Thierry",
      "coordinates": {
        "lon": 5.3866736,
        "lat": 43.3002622
      },
      "city": "Marseille"
    },
    "iterator": "ordoclic",
    "type": "drugstore"
  },
  {
    "gid": "4621e706",
    "rdv_site_web": "https://app.ordoclic.fr/app/pharmacie/pharmacie-flandre-littorale-grande-synthe",
    "com_cp": "59760",
    "com_insee": "59271",
    "nom": "Pharmacie Flandre Littorale",
    "phone_number": "+33328279280",
    "location": {
      "zip": "59760",
      "address": "Chemin Communal Centre Commercial Ouest",
      "coordinates": {
        "lon": 2.294963,
        "lat": 51.0159309
      },
      "city": "Grande-Synthe"
    },
    "iterator": "ordoclic",
    "type": "drugstore"
  },
  {
    "gid": "4b05eead",
    "rdv_site_web": "https://app.ordoclic.fr/app/pharmacie/pharmacie-henin-beaumont-henin-beaumont",
    "com_cp": "62110",
    "com_insee": "62427",
    "nom": "Pharmacie Henin Beaumont",
    "phone_number": "+33321200024",
    "location": {
      "zip": "62110",
      "address": "74 Place Carnot",
      "coordinates": {
        "lon": 2.9487318,
        "lat": 50.4203365
      },
      "city": "H\u00e9nin-Beaumont"
    },
    "iterator": "ordoclic",
    "type": "drugstore"
  },
  {
    "gid": "503c8516",
    "rdv_site_web": "https://app.ordoclic.fr/app/pharmacie/pharmacie-de-la-place-anzin",
    "com_cp": "59410",
    "com_insee": "59014",
    "nom": "Pharmacie De La Place",
    "phone_number": "+33327469350",
    "location": {
      "zip": "59410",
      "address": "177 AV ANATOLE FRANCE",
      "coordinates": {
        "lon": 3.5032477,
        "lat": 50.3712165
      },
      "city": "ANZIN"
    },
    "iterator": "ordoclic",
    "type": "drugstore"
  },
  {
    "gid": "51142bd5",
    "rdv_site_web": "https://app.ordoclic.fr/app/pharmacie/pharmacie-croix-dampierre-chalons-en-champagne",
    "com_cp": "51000",
    "com_insee": "51108",
    "nom": "Pharmacie Croix Dampierre",
    "phone_number": "+33326219000",
    "location": {
      "zip": "51000",
      "address": "AV DU PRESIDENT ROOSEVELT CC CROIX DAMPIERRE",
      "coordinates": {
        "lon": 4.3858888,
        "lat": 48.9422828
      },
      "city": "CHALONS EN CHAMPAGNE"
    },
    "iterator": "ordoclic",
    "type": "drugstore"
  },
  {
    "gid": "5ce05910",
    "rdv_site_web": "https://app.ordoclic.fr/app/pharmacie/pharmacie-manin-des-buttes-chaumont-paris",
    "com_cp": "75019",
    "com_insee": "75119",
    "nom": "Pharmacie Manin Des Buttes Chaumont",
    "phone_number": "+33142065481",
    "location": {
      "zip": "75019",
      "address": "105 Rue Manin",
      "coordinates": {
        "lon": 2.3792098,
        "lat": 48.8849421
      },
      "city": "Paris"
    },
    "iterator": "ordoclic",
    "type": "drugstore"
  },
  {
    "gid": "5f5d18ce",
    "rdv_site_web": "https://app.ordoclic.fr/app/pharmacie/pharmacie-martin-pinel-pont-de-cheruy",
    "com_cp": "38230",
    "com_insee": "38507",
    "nom": "Pharmacie Martin Pinel",
    "phone_number": "+33478321240",
    "location": {
      "zip": "38230",
      "address": "21 Rue Centrale",
      "coordinates": {
        "lon": 5.173681,
        "lat": 45.750949
      },
      "city": "Pont-de-Ch\u00e9ruy"
    },
    "iterator": "ordoclic",
    "type": "drugstore"
  },
  {
    "gid": "61d1c8dd",
    "rdv_site_web": "https://app.ordoclic.fr/app/pharmacie/pharmacie-de-montorgueil-paris",
    "com_cp": "75002",
    "com_insee": "75102",
    "nom": "Pharmacie De Montorgueil",
    "phone_number": "+33142368100",
    "location": {
      "zip": "75002",
      "address": "67 Rue Montorgueil",
      "coordinates": {
        "lon": 2.3469134,
        "lat": 48.8659579
      },
      "city": "Paris"
    },
    "iterator": "ordoclic",
    "type": "drugstore"
  },
  {
    "gid": "63a7b39a",
    "rdv_site_web": "https://app.ordoclic.fr/app/pharmacie/pharmacie-cauchoise-rouen",
    "com_cp": "76000",
    "com_insee": "76540",
    "nom": "Pharmacie Cauchoise",
    "phone_number": "+33235713020",
    "location": {
      "zip": "76000",
      "address": "7 Place Cauchoise",
      "coordinates": {
        "lon": 1.085969,
        "lat": 49.446072
      },
      "city": "Rouen"
    },
    "iterator": "ordoclic",
    "type": "drugstore"
  },
  {
    "gid": "6402aea8",
    "rdv_site_web": "https://app.ordoclic.fr/app/pharmacie/-pharmacie-des-allees--chateaurenard",
    "com_cp": "13160",
    "com_insee": "13027",
    "nom": "Pharmacie Des Allees",
    "phone_number": "+33490944341",
    "location": {
      "zip": "13160",
      "address": "32 Avenue Marx Dormoy",
      "coordinates": {
        "lon": 4.858182999999999,
        "lat": 43.8834182
      },
      "city": "Ch\u00e2teaurenard"
    },
    "iterator": "ordoclic",
    "type": "drugstore"
  },
  {
    "gid": "648515b0",
    "rdv_site_web": "https://app.ordoclic.fr/app/pharmacie/grande-pharmacie-de-wazemmes-lille",
    "com_cp": "59000",
    "com_insee": "59350",
    "nom": "Grande Pharmacie De Wazemmes",
    "phone_number": "+33320573995",
    "location": {
      "zip": "59000",
      "address": "Rue Leon Gambetta",
      "coordinates": {
        "lon": 3.0483095,
        "lat": 50.6269412
      },
      "city": "Lille"
    },
    "iterator": "ordoclic",
    "type": "drugstore"
  },
  {
    "gid": "662646d8",
    "rdv_site_web": "https://app.ordoclic.fr/app/pharmacie/pharmacie-amandiers--nanterre",
    "com_cp": "92000",
    "com_insee": "92050",
    "nom": "Pharmacie Amandiers",
    "phone_number": "+33147213294",
    "location": {
      "zip": "92000",
      "address": "25 rue Sadi Carnot ",
      "coordinates": {
        "lon": 2.2025588,
        "lat": 48.8894482
      },
      "city": "Nanterre "
    },
    "iterator": "ordoclic",
    "type": "drugstore"
  },
  {
    "gid": "6d667799",
    "rdv_site_web": "https://app.ordoclic.fr/app/pharmacie/pharmacie-nationale-du-square-lille",
    "com_cp": "59800",
    "com_insee": "59350",
    "nom": "Pharmacie Nationale Du Square",
    "phone_number": "+33650889307",
    "location": {
      "zip": "59800",
      "address": "103 Rue Nationale",
      "coordinates": {
        "lon": 3.057356,
        "lat": 50.6346208
      },
      "city": "Lille"
    },
    "iterator": "ordoclic",
    "type": "drugstore"
  },
  {
    "gid": "6f564914",
    "rdv_site_web": "https://app.ordoclic.fr/app/pharmacie/pharmacie-de-l'avenir-orbec",
    "com_cp": "14290",
    "com_insee": "14740",
    "nom": "Pharmacie De L'Avenir",
    "phone_number": "+33231328949",
    "location": {
      "zip": "14290",
      "address": "127 rue Grande",
      "coordinates": {
        "lon": 0.4058560000000001,
        "lat": 49.022737
      },
      "city": "Orbec"
    },
    "iterator": "ordoclic",
    "type": "drugstore"
  },
  {
    "gid": "72665b64",
    "rdv_site_web": "https://app.ordoclic.fr/app/pharmacie/pharmacie-des-5-avenues-marseille",
    "com_cp": "13004",
    "com_insee": "13204",
    "nom": "Pharmacie Des 5 Avenues",
    "phone_number": "+33491497777",
    "location": {
      "zip": "13004",
      "address": "6 Avenue des Chartreux",
      "coordinates": {
        "lon": 5.3973302,
        "lat": 43.3029135
      },
      "city": "Marseille"
    },
    "iterator": "ordoclic",
    "type": "drugstore"
  },
  {
    "gid": "769ad31e",
    "rdv_site_web": "https://app.ordoclic.fr/app/pharmacie/pharmacie-de-l'horloge-nice",
    "com_cp": "06100",
    "com_insee": "06088",
    "nom": "Pharmacie De L'Horloge",
    "phone_number": "+33493844886",
    "location": {
      "zip": "06100",
      "address": "98 Boulevard DE CESSOLE",
      "coordinates": {
        "lon": 7.2526853,
        "lat": 43.7185431
      },
      "city": "NICE"
    },
    "iterator": "ordoclic",
    "type": "drugstore"
  },
  {
    "gid": "794ddec7",
    "rdv_site_web": "https://app.ordoclic.fr/app/pharmacie/alain-elkaim-marseille",
    "com_cp": "13007",
    "com_insee": "13207",
    "nom": "Alain Elkaim",
    "phone_number": "",
    "location": {
      "zip": "13007",
      "address": "70 BOULEVARD DE LA CORDERIE",
      "coordinates": {
        "lon": 5.369154,
        "lat": 43.2904849
      },
      "city": "MARSEILLE"
    },
    "iterator": "ordoclic",
    "type": "drugstore"
  },
  {
    "gid": "836ca4db",
    "rdv_site_web": "https://app.ordoclic.fr/app/pharmacie/pharmacie-du-port-saint-martin-de-re",
    "com_cp": "17410",
    "com_insee": "17369",
    "nom": "Pharmacie Du Port",
    "phone_number": "+33546092043",
    "location": {
      "zip": "17410",
      "address": "7 rue de Sully",
      "coordinates": {
        "lon": -1.3683235,
        "lat": 46.20429920000001
      },
      "city": "Saint Martin de R\u00e9"
    },
    "iterator": "ordoclic",
    "type": "drugstore"
  },
  {
    "gid": "881d85f9",
    "rdv_site_web": "https://app.ordoclic.fr/app/pharmacie/pharmacie-du-miroir-le-mans",
    "com_cp": "72100",
    "com_insee": "72181",
    "nom": "Pharmacie Du Miroir",
    "phone_number": "+33243727556",
    "location": {
      "zip": "72100",
      "address": "18 bis Avenue Henri Lefeuvre",
      "coordinates": {
        "lon": 0.1947337,
        "lat": 47.9930529
      },
      "city": "Le Mans"
    },
    "iterator": "ordoclic",
    "type": "drugstore"
  },
  {
    "gid": "8ea9a675",
    "rdv_site_web": "https://app.ordoclic.fr/app/pharmacie/pharmacie-de-la-pyramide-macon",
    "com_cp": "71000",
    "com_insee": "71556",
    "nom": "Pharmacie De La Pyramide",
    "phone_number": "+33385380199",
    "location": {
      "zip": "71000",
      "address": "362 rue carnot",
      "coordinates": {
        "lon": 4.8302966,
        "lat": 46.30249389999999
      },
      "city": "M\u00e2con"
    },
    "iterator": "ordoclic",
    "type": "drugstore"
  },
  {
    "gid": "919a33ad",
    "rdv_site_web": "https://app.ordoclic.fr/app/pharmacie/pharmacie-borderie-clermont-fd",
    "com_cp": "63000",
    "com_insee": "63113",
    "nom": "Pharmacie Borderie",
    "phone_number": "+33473935677",
    "location": {
      "zip": "63000",
      "address": "4 av marx dormoy",
      "coordinates": {
        "lon": 3.08105,
        "lat": 45.7715273
      },
      "city": "clermont fd"
    },
    "iterator": "ordoclic",
    "type": "drugstore"
  },
  {
    "gid": "91dc764f",
    "rdv_site_web": "https://app.ordoclic.fr/app/pharmacie/olivier-sanchez-la-frette-sur-seine",
    "com_cp": "95530",
    "com_insee": "95257",
    "nom": "Olivier Sanchez",
    "phone_number": "+33134508844",
    "location": {
      "zip": "95530",
      "address": "123 TER BD DE PONTOISE",
      "coordinates": {
        "lon": 2.1826285,
        "lat": 48.980173
      },
      "city": "LA FRETTE SUR SEINE"
    },
    "iterator": "ordoclic",
    "type": "drugstore"
  },
  {
    "gid": "9852634b",
    "rdv_site_web": "https://app.ordoclic.fr/app/pharmacie/pharmacie--ile-saint-germain--issy-les-moulineaux",
    "com_cp": "92130",
    "com_insee": "92040",
    "nom": "Pharmacie  \u00cele Saint Germain",
    "phone_number": "+33146422805",
    "location": {
      "zip": "92130",
      "address": "15 Boulevard des Iles",
      "coordinates": {
        "lon": 2.2499669,
        "lat": 48.8229807
      },
      "city": "Issy-les-Moulineaux"
    },
    "iterator": "ordoclic",
    "type": "drugstore"
  },
  {
    "gid": "9eaace69",
    "rdv_site_web": "https://app.ordoclic.fr/app/pharmacie/pharmacie-de-la-gare-nanterre",
    "com_cp": "92000",
    "com_insee": "92050",
    "nom": "Pharmacie De La Gare",
    "phone_number": "+33147211223",
    "location": {
      "zip": "92000",
      "address": "82bis rue Maurice Thorez",
      "coordinates": {
        "lon": 2.1962787,
        "lat": 48.8949177
      },
      "city": "Nanterre"
    },
    "iterator": "ordoclic",
    "type": "drugstore"
  },
  {
    "gid": "a65cf6f8",
    "rdv_site_web": "https://app.ordoclic.fr/app/pharmacie/snc-pharmacie-du-centre-tchikirian---teknetzian--la-garenne-colombes",
    "com_cp": "92250",
    "com_insee": "92035",
    "nom": "Snc Pharmacie Du Centre Tchikirian - Teknetzian",
    "phone_number": "",
    "location": {
      "zip": "92250",
      "address": "2 Rd Pt du Souvenir Fran\u00e7ais ",
      "coordinates": {
        "lon": 2.2479974,
        "lat": 48.90670799999999
      },
      "city": "LA GARENNE COLOMBES"
    },
    "iterator": "ordoclic",
    "type": "drugstore"
  },
  {
    "gid": "a7c109b2",
    "rdv_site_web": "https://app.ordoclic.fr/app/pharmacie/pharmacie-des-iris-lancon-provence",
    "com_cp": "13680",
    "com_insee": "13051",
    "nom": "Pharmacie Des Iris",
    "phone_number": "+33490427607",
    "location": {
      "zip": "13680",
      "address": "6 place de la republique",
      "coordinates": {
        "lon": 5.1248605,
        "lat": 43.5902136
      },
      "city": "lancon provence"
    },
    "iterator": "ordoclic",
    "type": "drugstore"
  },
  {
    "gid": "a8adb3b4",
    "rdv_site_web": "https://app.ordoclic.fr/app/pharmacie/pharmacie-la-galerie-quimper",
    "com_cp": "29000",
    "com_insee": "29232",
    "nom": "Pharmacie La Galerie",
    "phone_number": "+33298905316",
    "location": {
      "zip": "29000",
      "address": "163 RTE DE BENODET",
      "coordinates": {
        "lon": -4.094823,
        "lat": 47.9747201
      },
      "city": "quimper"
    },
    "iterator": "ordoclic",
    "type": "drugstore"
  },
  {
    "gid": "ace3c632",
    "rdv_site_web": "https://app.ordoclic.fr/app/pharmacie/pharmacie-de-la-mairie-andilly",
    "com_cp": "95580",
    "com_insee": "95369",
    "nom": "Pharmacie De La Mairie",
    "phone_number": "+33139592168",
    "location": {
      "zip": "95580",
      "address": "9 place louis jean finot",
      "coordinates": {
        "lon": 2.2988758,
        "lat": 49.0048594
      },
      "city": "andilly"
    },
    "iterator": "ordoclic",
    "type": "drugstore"
  },
  {
    "gid": "b07ad721",
    "rdv_site_web": "https://app.ordoclic.fr/app/pharmacie/pharmacie-des-vignes-montpellier",
    "com_cp": "34000",
    "com_insee": "34172",
    "nom": "Pharmacie Des Vignes",
    "phone_number": "+33467630785",
    "location": {
      "zip": "34000",
      "address": "31 avenue Ecole Agriculture G. Buchet",
      "coordinates": {
        "lon": 3.8577281,
        "lat": 43.6143535
      },
      "city": "MONTPELLIER"
    },
    "iterator": "ordoclic",
    "type": "drugstore"
  },
  {
    "gid": "b9f0bf5a",
    "rdv_site_web": "https://app.ordoclic.fr/app/pharmacie/pharmacie-des-reynats-chancelade",
    "com_cp": "24650",
    "com_insee": "24102",
    "nom": "Pharmacie Des Reynats",
    "phone_number": "+33553047813",
    "location": {
      "zip": "24650",
      "address": "58 AV des Reynats",
      "coordinates": {
        "lon": 0.6696451000000001,
        "lat": 45.2005284
      },
      "city": "CHANCELADE"
    },
    "iterator": "ordoclic",
    "type": "drugstore"
  },
  {
    "gid": "bd16eeaf",
    "rdv_site_web": "https://app.ordoclic.fr/app/pharmacie/pharmacie-des-cigognes-obernai",
    "com_cp": "67210",
    "com_insee": "67504",
    "nom": "Pharmacie Des Cigognes",
    "phone_number": "+33388953030",
    "location": {
      "zip": "67210",
      "address": "31 Rue du Marechal Koenig",
      "coordinates": {
        "lon": 7.49316,
        "lat": 48.4583123
      },
      "city": "Obernai"
    },
    "iterator": "ordoclic",
    "type": "drugstore"
  },
  {
    "gid": "c523ce4f",
    "rdv_site_web": "https://app.ordoclic.fr/app/pharmacie/pharmacie-delahaye-eurl-saint-aubin-de-medoc",
    "com_cp": "33160",
    "com_insee": "33494",
    "nom": "Pharmacie Delahaye Eurl",
    "phone_number": "",
    "location": {
      "zip": "33160",
      "address": "15 Route de Germignan",
      "coordinates": {
        "lon": -0.7228249999999999,
        "lat": 44.9115791
      },
      "city": "Saint-Aubin-de-M\u00e9doc"
    },
    "iterator": "ordoclic",
    "type": "drugstore"
  },
  {
    "gid": "c6dbd33f",
    "rdv_site_web": "https://app.ordoclic.fr/app/pharmacie/pharmacie-d'ergue-armel-c.c-casino-quimper",
    "com_cp": "29000",
    "com_insee": "29232",
    "nom": "Pharmacie D'Ergue-Armel C.C Casino",
    "phone_number": "+33298907810",
    "location": {
      "zip": "29000",
      "address": "2 Avenue de Ty Bos",
      "coordinates": {
        "lon": -4.073479499999999,
        "lat": 47.9826383
      },
      "city": "Quimper"
    },
    "iterator": "ordoclic",
    "type": "drugstore"
  },
  {
    "gid": "cfa2beff",
    "rdv_site_web": "https://app.ordoclic.fr/app/pharmacie/pharmacie-de-la-sambre-jeumont",
    "com_cp": "59460",
    "com_insee": "59324",
    "nom": "Pharmacie De La Sambre",
    "phone_number": "+33327396187",
    "location": {
      "zip": "59460",
      "address": "27 Rue Jean Jaur\u00e8s",
      "coordinates": {
        "lon": 4.102241999999999,
        "lat": 50.29707430000001
      },
      "city": "Jeumont"
    },
    "iterator": "ordoclic",
    "type": "drugstore"
  },
  {
    "gid": "cfb2dc09",
    "rdv_site_web": "https://app.ordoclic.fr/app/pharmacie/pharmacie-trincal-vanves",
    "com_cp": "92170",
    "com_insee": "92075",
    "nom": "Pharmacie Trincal",
    "phone_number": "+33146420381",
    "location": {
      "zip": "92170",
      "address": "55 R RAYMOND MARCHERON",
      "coordinates": {
        "lon": 2.2900994,
        "lat": 48.82025789999999
      },
      "city": "VANVES"
    },
    "iterator": "ordoclic",
    "type": "drugstore"
  },
  {
    "gid": "d958b43b",
    "rdv_site_web": "https://app.ordoclic.fr/app/pharmacie/pharmacie-du-mortier-valserhone",
    "com_cp": "01200",
    "com_insee": "74109",
    "nom": "Pharmacie Du Mortier",
    "phone_number": "+33450482806",
    "location": {
      "zip": "01200",
      "address": "3 Rue Joseph Bertola",
      "coordinates": {
        "lon": 2.4819234,
        "lat": 50.5623406
      },
      "city": "Valserh\u00f4ne"
    },
    "iterator": "ordoclic",
    "type": "drugstore"
  },
  {
    "gid": "e009c904",
    "rdv_site_web": "https://app.ordoclic.fr/app/pharmacie/pharmacie-ponthieux-chauny",
    "com_cp": "02300",
    "com_insee": "02820",
    "nom": "Pharmacie Ponthieux",
    "phone_number": "",
    "location": {
      "zip": "02300",
      "address": "10 rue de la r\u00e9publique",
      "coordinates": {
        "lon": 3.218973,
        "lat": 49.6147741
      },
      "city": "Chauny"
    },
    "iterator": "ordoclic",
    "type": "drugstore"
  },
  {
    "gid": "e6eafd26",
    "rdv_site_web": "https://app.ordoclic.fr/app/pharmacie/pierre-lancelot-82600---aucamville",
    "com_cp": "82600",
    "com_insee": "82190",
    "nom": "Pierre Lancelot",
    "phone_number": "+33563026802",
    "location": {
      "zip": "82600",
      "address": "avenue de toulouse",
      "coordinates": {
        "lon": 1.2157513,
        "lat": 43.8026695
      },
      "city": "82600 - AUCAMVILLE"
    },
    "iterator": "ordoclic",
    "type": "drugstore"
  },
  {
    "gid": "e9c4990e",
    "rdv_site_web": "https://app.ordoclic.fr/app/pharmacie/pharmacie-d'eleu-eleu-dit-leauwette",
    "com_cp": "62300",
    "com_insee": "62498",
    "nom": "Pharmacie D'Eleu",
    "phone_number": "+33321282330",
    "location": {
      "zip": "62300",
      "address": "2 rue gabriel P\u00e9ri",
      "coordinates": {
        "lon": 2.8171747,
        "lat": 50.4161742
      },
      "city": "ELEU-DIT-LEAUWETTE"
    },
    "iterator": "ordoclic",
    "type": "drugstore"
  },
  {
    "gid": "ebd27a8b",
    "rdv_site_web": "https://app.ordoclic.fr/app/pharmacie/pharmacie-de-la-place-de-la-republique-paris",
    "com_cp": "75003",
    "com_insee": "75103",
    "nom": "Pharmacie De La Place De La R\u00e9publique",
    "phone_number": "+33147001808",
    "location": {
      "zip": "75003",
      "address": "5 Place de la R\u00e9publique",
      "coordinates": {
        "lon": 2.364274,
        "lat": 48.8664485
      },
      "city": "Paris"
    },
    "iterator": "ordoclic",
    "type": "drugstore"
  },
  {
    "gid": "ec0e1678",
    "rdv_site_web": "https://app.ordoclic.fr/app/pharmacie/chambly-pharma-chambly",
    "com_cp": "60230",
    "com_insee": "60139",
    "nom": "Chambly Pharma",
    "phone_number": "+33134705137",
    "location": {
      "zip": "60230",
      "address": "rue francois truffaut ",
      "coordinates": {
        "lon": 2.2564365,
        "lat": 49.15763519999999
      },
      "city": "Chambly"
    },
    "iterator": "ordoclic",
    "type": "drugstore"
  },
  {
    "gid": "f01a7e60",
    "rdv_site_web": "https://app.ordoclic.fr/app/pharmacie/snc-dulin-guimard-branne",
    "com_cp": "33420",
    "com_insee": "33531",
    "nom": "Snc Dulin Guimard",
    "phone_number": "+33557845132",
    "location": {
      "zip": "33420",
      "address": "83 rue emmanuel Roy",
      "coordinates": {
        "lon": -0.1878246,
        "lat": 44.8292853
      },
      "city": "branne"
    },
    "iterator": "ordoclic",
    "type": "drugstore"
  },
  {
    "gid": "feb094ba",
    "rdv_site_web": "https://app.ordoclic.fr/app/pharmacie/pharmacie-du-college",
    "com_cp": "01130",
    "com_insee": "01357",
    "nom": "Pharmacie Du Coll\u00e8ge",
    "phone_number": "+33474750042",
    "location": {
      "zip": "01130",
      "address": "19 rue du Coll\u00e8ge",
      "coordinates": {
        "lon": 5.606802999999999,
        "lat": 46.153488
      },
      "city": "Nantua"
    },
    "iterator": "ordoclic",
    "type": "drugstore"
  },
  {
    "gid": "0662342e",
    "rdv_site_web": "https://app.ordoclic.fr/app/pharmacie/grande-pharmacie-des-halles-lille",
    "com_cp": "59000",
    "com_insee": "59350",
    "nom": "Grande Pharmacie Des Halles",
    "phone_number": "+33320540274",
    "location": {
      "zip": "59000",
      "address": "99 Rue de Solferino",
      "coordinates": {
        "lon": 3.054965,
        "lat": 50.6312977
      },
      "city": "Lille"
    },
    "iterator": "ordoclic",
    "type": "drugstore"
  }
]